,City,Lat,Lng,Max Temp,Humidity,Cloudiness,Wind Speed,Country,Date
0,Castro,-24.7911,-50.0119,52.18,74,100,3.22,BR,1660451038
1,Luanda,-8.8368,13.2343,66.9,87,99,2.66,AO,1660451038
2,Bluff,-46.6,168.3333,50.81,77,68,23.91,NZ,1660451039
3,Qaanaaq,77.484,-69.3632,43.99,68,100,8.21,GL,1660451039
4,Barrow,71.2906,-156.7887,33.82,86,100,3.44,US,1660450770
5,Rikitea,-23.1203,-134.9692,73.13,79,82,21.3,PF,1660451040
6,Bagotville,-28.9833,153.4167,69.69,43,0,10.04,AU,1660450866
7,Zabid,14.1951,43.3152,86.54,59,89,2.08,YE,1660450866
8,Yeppoon,-23.1333,150.7333,76.78,65,0,10.49,AU,1660450867
9,Kapaa,22.0752,-159.319,82.38,83,20,11.5,US,1660450713
10,Kahului,20.8947,-156.47,86.02,56,20,23.02,US,1660450830
11,Vung Tau,10.346,107.0843,84.42,70,46,6.78,VN,1660450868
12,Punta Arenas,-53.15,-70.9167,33.91,93,75,8.05,CL,1660450741
13,Jamestown,42.097,-79.2353,62.24,73,0,0.0,US,1660450531
14,Hong Kong,22.2855,114.1577,91.04,73,14,5.99,HK,1660450605
15,Cherskiy,68.75,161.3,40.44,94,100,7.7,RU,1660450763
16,Lagoa,39.05,-27.9833,74.19,89,0,9.82,PT,1660450869
17,Vaini,-21.2,-175.2,73.56,78,75,11.5,TO,1660450728
18,Iqaluit,63.7506,-68.5145,46.13,93,100,3.0,CA,1660450870
19,Arrondissement de Vierzon,47.2101,2.0625,71.87,87,100,9.22,FR,1660450870
20,Aden,12.7794,45.0367,85.46,73,89,20.2,YE,1660450632
21,Yellowknife,62.456,-114.3525,63.12,55,20,4.61,CA,1660450840
22,Bengkulu,-3.8004,102.2655,84.06,67,86,4.74,ID,1660450735
23,Semīrom,31.4167,51.5667,64.65,16,0,3.04,IR,1660450871
24,Ribeira Grande,38.5167,-28.7,75.49,85,5,5.44,PT,1660450826
25,Mahébourg,-20.4081,57.7,70.25,64,20,19.57,MU,1660450792
26,Tautira,-17.7333,-149.15,77.61,77,72,13.51,PF,1660450872
27,Norman Wells,65.282,-126.8329,78.84,27,20,5.75,CA,1660450757
28,Pevek,69.7008,170.3133,34.57,79,12,9.46,RU,1660450769
29,Mareeba,-17.0,145.4333,81.45,56,49,4.94,AU,1660450873
30,Cidreira,-30.1811,-50.2056,60.67,87,0,5.99,BR,1660450873
31,Cape Town,-33.9258,18.4232,53.11,89,100,3.44,ZA,1660450503
32,Lüderitz,-26.6481,15.1594,52.39,64,43,6.67,NA,1660450874
33,Zaysan,47.4667,84.8667,77.67,35,0,8.41,KZ,1660450874
34,Inírida,3.8653,-67.9239,71.46,95,99,0.69,CO,1660450875
35,Albany,42.6001,-73.9662,61.52,79,32,3.6,US,1660450670
36,Nikolskoye,59.7035,30.7861,66.78,73,50,3.04,RU,1660450791
37,Saint-Philippe,-21.3585,55.7679,68.22,75,60,14.32,RE,1660450714
38,Ulladulla,-35.35,150.4667,63.5,41,29,12.88,AU,1660450876
39,Níjar,36.9665,-2.206,84.65,37,0,4.61,ES,1660450877
40,Khandyga,62.6667,135.6,75.6,43,34,2.8,RU,1660450877
41,Shenjiamen,29.9576,122.298,84.09,79,97,20.15,CN,1660450877
42,Labuhan,-6.8844,112.2051,86.23,63,100,9.33,ID,1660450878
43,Winslow,35.0242,-110.6974,78.98,44,0,8.05,US,1660450879
44,Saint Paul Harbor,57.79,-152.4072,54.91,88,100,8.05,US,1660450716
45,Port Elizabeth,-33.918,25.5701,50.31,82,25,1.99,ZA,1660450828
46,Balakliya,49.4627,36.8595,77.43,49,99,19.51,UA,1660450879
47,George Town,5.4112,100.3354,87.75,70,20,6.91,MY,1660450525
48,Thompson,55.7435,-97.8558,51.96,76,0,0.0,CA,1660450502
49,Dikson,73.5069,80.5464,44.62,100,100,6.13,RU,1660450714
50,Ilulissat,69.2167,-51.1,44.62,65,96,4.61,GL,1660450825
51,Eilat,29.5581,34.9482,76.84,57,0,5.75,IL,1660450881
52,Bethel,41.3712,-73.414,65.64,76,100,0.0,US,1660450766
53,Port Alfred,-33.5906,26.891,50.18,83,0,7.0,ZA,1660450720
54,Paamiut,61.994,-49.6678,43.97,94,100,5.64,GL,1660450881
55,Örnsköldsvik,63.2909,18.7153,58.15,94,75,1.14,SE,1660450723
56,Fortuna,40.5982,-124.1573,62.65,86,0,9.22,US,1660450882
57,Tsimmerbude,54.675,20.1347,69.96,84,85,8.41,RU,1660450883
58,Buraidah,26.326,43.975,88.25,19,15,7.61,SA,1660450883
59,Bubaque,11.2833,-15.8333,79.43,81,99,18.61,GW,1660450884
60,Tuktoyaktuk,69.4541,-133.0374,46.4,93,75,16.11,CA,1660450842
61,Mataura,-46.1927,168.8643,50.49,63,4,5.59,NZ,1660450751
62,Geraldton,-28.7667,114.6,66.61,59,100,4.61,AU,1660450760
63,Havelock,34.8791,-76.9013,75.94,81,0,0.0,US,1660450885
64,Lubaczów,50.157,23.1234,64.51,97,65,5.73,PL,1660450886
65,Severo-Kuril'sk,50.6789,156.125,55.31,96,100,15.3,RU,1660450886
66,Hilo,19.7297,-155.09,79.29,81,100,3.44,US,1660450734
67,Atuona,-9.8,-139.0333,77.36,69,0,20.83,PF,1660450715
68,Hobart,-42.8794,147.3294,57.06,91,75,13.8,AU,1660450504
69,Constitución,-35.3333,-72.4167,51.04,93,100,6.93,CL,1660450887
70,Rome,43.2128,-75.4557,57.87,89,0,4.61,US,1660450881
71,Hermanus,-34.4187,19.2345,50.81,78,80,17.05,ZA,1660450741
72,Guerrero Negro,27.9769,-114.0611,73.11,81,2,14.47,MX,1660450764
73,Banda Aceh,5.5577,95.3222,85.75,61,100,6.22,ID,1660450888
74,Denpasar,-8.65,115.2167,83.86,79,20,9.22,ID,1660450658
75,Kasongo-Lunda,-6.4667,16.8167,62.24,82,5,1.34,CD,1660450889
76,Hanstholm,57.1167,8.6167,64.89,72,22,2.75,DK,1660450889
77,Avera,33.194,-82.5271,69.31,45,24,3.6,US,1660450890
78,Port Lincoln,-34.7333,135.8667,58.15,69,88,12.68,AU,1660450890
79,Vila Velha,-20.3297,-40.2925,65.95,83,20,1.14,BR,1660450891
80,Domoni,-12.2569,44.5319,73.81,79,0,3.83,KM,1660450891
81,Quatre Cocos,-20.2078,57.7625,70.09,65,97,17.67,MU,1660450891
82,Russell,32.3502,-85.1999,76.23,100,0,0.0,US,1660450892
83,Fare,-16.7,-151.0167,78.04,76,3,14.43,PF,1660450892
84,Richards Bay,-28.783,32.0377,64.71,92,100,5.23,ZA,1660450752
85,Makkah al Mukarramah,21.4267,39.8261,89.02,47,39,4.83,SA,1660450820
86,Lebu,-37.6167,-73.65,48.52,82,100,6.53,CL,1660450680
87,Teguise,29.0605,-13.564,68.22,78,0,18.41,ES,1660450893
88,Upernavik,72.7868,-56.1549,43.59,73,100,7.43,GL,1660450894
89,Marsá Maţrūḩ,31.3525,27.2453,75.4,78,40,4.61,EG,1660450894
90,Puerto Ayora,-0.7393,-90.3518,68.56,95,100,5.01,EC,1660450758
91,Nanortalik,60.1432,-45.2371,44.28,99,100,6.31,GL,1660450760
92,Juneau,58.3019,-134.4197,61.21,90,100,10.36,US,1660450895
93,Bambous Virieux,-20.3428,57.7575,70.21,64,20,19.57,MU,1660450717
94,Yuzhno-Kurilsk,44.0306,145.8556,66.13,97,100,4.09,RU,1660450896
95,Ushuaia,-54.8,-68.3,37.06,93,100,16.11,AR,1660450490
96,Agadez,19.75,10.25,84.13,15,62,9.8,NE,1660450896
97,Xai-Xai,-25.0519,33.6442,68.95,68,19,15.5,MZ,1660450897
98,Dingle,10.9995,122.6711,84.56,78,74,9.33,PH,1660450746
99,Kungurtug,50.5994,97.5228,67.1,48,51,7.67,RU,1660450897
100,Nānākuli,21.3906,-158.1547,84.15,57,20,10.36,US,1660450898
101,Talnakh,69.4865,88.3972,67.21,37,79,17.38,RU,1660450898
102,Semey,50.4111,80.2275,77.22,38,0,11.18,KZ,1660450826
103,Sechura,-5.5569,-80.8222,62.62,86,3,12.37,PE,1660450899
104,Kruisfontein,-34.0033,24.7314,45.88,84,11,10.76,ZA,1660450899
105,Busselton,-33.65,115.3333,60.04,58,15,9.6,AU,1660450460
106,Omboué,-1.5746,9.2618,72.9,76,100,8.46,GA,1660450900
107,Abhā,18.2164,42.5053,66.45,88,95,0.0,SA,1660450901
108,Butaritari,3.0707,172.7902,81.39,77,68,16.11,KI,1660450729
109,Aklavik,68.2191,-135.0107,54.97,71,42,18.92,CA,1660450901
110,Balyqshy,47.0667,51.8667,80.6,22,0,8.95,KZ,1660450902
111,Chokurdakh,70.6333,147.9167,48.69,55,46,8.3,RU,1660450727
112,Panzhihua,26.5851,101.7128,85.57,59,52,1.45,CN,1660450902
113,Kavieng,-2.5744,150.7967,83.75,62,100,7.25,PG,1660450903
114,Sitka,57.0531,-135.33,60.69,77,100,5.75,US,1660450929
115,Salalah,17.0151,54.0924,75.13,97,100,7.67,OM,1660450538
116,Valparaíso,-33.0393,-71.6273,53.47,100,0,4.61,CL,1660450850
117,Narsaq,60.9167,-46.05,44.82,98,100,0.69,GL,1660450930
118,Oodweyne,9.4092,45.064,72.39,56,90,19.15,SO,1660450757
119,Ilhéus,-14.7889,-39.0494,67.6,88,88,8.16,BR,1660450931
120,Andenes,69.3143,16.1194,49.98,76,75,13.8,NO,1660450931
121,Megion,61.0296,76.1136,53.62,68,95,23.98,RU,1660450931
122,Playas,-2.6333,-80.3833,69.3,86,76,11.43,EC,1660450932
123,Ancud,-41.8697,-73.8203,45.73,81,19,25.26,CL,1660450715
124,Oktyabr'skiy,54.4815,53.471,64.49,55,70,7.61,RU,1660450933
125,Tiksi,71.6872,128.8694,43.02,83,98,14.74,RU,1660450842
126,Marsala,37.7966,12.4352,76.93,78,20,4.61,IT,1660450933
127,Ojuelos de Jalisco,21.8667,-101.5833,59.02,84,98,2.66,MX,1660450934
128,Fairbanks,64.8378,-147.7164,73.4,67,0,3.44,US,1660450853
129,Toora-Khem,52.4675,96.11,61.12,77,100,1.48,RU,1660450934
130,La Macarena,2.1837,-73.7849,70.9,93,74,2.04,CO,1660450935
131,Noumea,-22.2763,166.4572,76.98,99,86,12.15,NC,1660450935
132,Esim,4.8699,-2.2405,74.3,88,100,10.54,GH,1660450936
133,Vardø,70.3705,31.1107,53.58,82,100,3.44,NO,1660450744
134,Santa Cruz de la Sierra,-17.8,-63.1667,69.26,88,20,4.61,BO,1660450803
135,Tolga,34.7222,5.3785,85.01,24,18,3.4,DZ,1660450937
136,Mossamedes,-15.1961,12.1522,62.82,89,48,1.12,AO,1660450937
137,Esperance,-33.8667,121.9,60.64,55,43,16.87,AU,1660450937
138,Biak,-0.9131,122.8766,82.15,70,98,8.19,ID,1660450938
139,Khatanga,71.9667,102.5,62.37,40,0,10.96,RU,1660450938
140,San Cristobal,7.7669,-72.225,71.78,99,93,2.42,VE,1660450734
141,Carnarvon,-24.8667,113.6333,70.52,55,0,1.66,AU,1660450751
142,Mar del Plata,-38.0023,-57.5575,57.09,83,0,25.01,AR,1660450732
143,Wittingen,52.7269,10.7361,66.97,100,100,4.7,DE,1660450939
144,Inhambane,-23.865,35.3833,73.38,94,75,16.11,MZ,1660451070
145,New Norfolk,-42.7826,147.0587,56.7,93,99,10.49,AU,1660450755
146,Pokhara,28.2333,83.9833,80.85,77,100,4.45,NP,1660451071
147,Newton,42.337,-71.2092,65.28,81,20,0.0,US,1660450963
148,Killam,52.7834,-111.8518,67.95,60,7,9.22,CA,1660451071
149,Saint Petersburg,59.8944,30.2642,61.11,85,19,0.0,RU,1660451072
150,Nouadhibou,20.931,-17.0347,72.01,88,88,11.63,MR,1660451072
151,Bom Jesus,-9.0744,-44.3586,74.08,48,20,5.93,BR,1660451073
152,Panguna,-6.3164,155.4848,77.56,75,32,0.43,PG,1660451073
153,Nizwá,22.9333,57.5333,81.45,63,100,1.34,OM,1660451073
154,Tarakan,3.3,117.6333,85.5,74,40,4.61,ID,1660451045
155,Srednekolymsk,67.45,153.6833,45.14,73,100,14.85,RU,1660451074
156,Saskylakh,71.9167,114.0833,55.98,41,39,7.54,RU,1660450793
157,Kaeo,-35.1,173.7833,59.32,68,98,4.65,NZ,1660451075
158,Cabo San Lucas,22.8909,-109.9124,86.5,78,35,4.38,MX,1660451075
159,Namatanai,-3.6667,152.4333,83.48,69,98,4.7,PG,1660451075
160,Bandarbeyla,9.4942,50.8122,79.9,60,46,27.13,SO,1660450734
161,Dunedin,-45.8742,170.5036,51.96,59,0,12.03,NZ,1660451076
162,Tabou,4.423,-7.3528,75.43,82,56,10.71,CI,1660451077
163,Tasiilaq,65.6145,-37.6368,35.76,67,4,7.05,GL,1660450718
164,Imeni Poliny Osipenko,52.4201,136.4853,70.25,64,50,3.22,RU,1660451077
165,Asarganj,25.15,86.6833,85.69,69,99,22.97,IN,1660451078
166,Astoria,46.1879,-123.8313,64.29,85,0,8.05,US,1660451078
167,Neiafu,-18.65,-173.9833,75.88,73,40,9.22,TO,1660451078
168,Snihurivka,47.0758,32.8052,69.78,78,100,8.19,UA,1660451079
169,Codrington,-38.2667,141.9667,55.6,81,66,19.48,AU,1660451079
170,Avarua,-21.2078,-159.775,69.85,94,100,9.22,CK,1660450739
171,La Troncal,-2.4,-79.3333,70.75,87,39,1.97,EC,1660451080
172,Klaksvík,62.2266,-6.589,52.72,93,98,10.13,FO,1660450747
173,Santa Vitória do Palmar,-33.5189,-53.3681,53.83,91,3,5.57,BR,1660451081
174,Arlit,18.7369,7.3853,89.92,35,36,10.45,NE,1660451081
175,Mayo,38.8876,-76.5119,72.0,82,0,1.01,US,1660451082
176,Sumbawanga,-7.9667,31.6167,54.34,57,27,2.06,TZ,1660451082
177,Viedma,-40.8135,-62.9967,57.7,48,9,15.14,AR,1660451083
178,Swansea,51.6208,-3.9432,70.41,69,92,5.35,GB,1660451083
179,Charters Towers,-20.1,146.2667,75.67,25,2,7.94,AU,1660451084
180,Rocha,-34.4833,-54.3333,52.56,95,4,5.77,UY,1660451084
181,Zhezkazgan,47.8043,67.7144,80.58,26,0,13.42,KZ,1660451084
182,Neuquén,-38.9516,-68.0591,53.49,43,0,8.05,AR,1660450823
183,Kaitangata,-46.2817,169.8464,51.06,65,4,12.48,NZ,1660451085
184,Taoudenni,22.6783,-3.9836,92.88,27,48,7.96,ML,1660451085
185,Yangi Marg`ilon,40.4272,71.7189,86.72,26,0,4.61,UZ,1660451086
186,Riyadh,24.6877,46.7219,93.34,16,41,13.8,SA,1660450936
187,Deputatsky,69.3,139.9,38.7,88,100,5.75,RU,1660451086
188,Huarmey,-10.0681,-78.1522,62.06,86,31,7.02,PE,1660451087
189,Leshukonskoye,64.8989,45.7622,52.52,72,12,3.67,RU,1660451087
190,Løgstør,56.9624,9.2583,58.78,64,60,6.04,DK,1660451088
191,San Juan,-31.5375,-68.5364,58.12,24,1,1.41,AR,1660450821
192,Ust-Nera,64.5667,143.2,71.69,41,74,4.27,RU,1660451088
193,Dahuk,36.8695,42.994,87.28,27,0,2.35,IQ,1660451089
194,Narodychi,51.2029,29.0823,62.64,82,89,7.94,UA,1660451089
195,Passagem Franca,-6.1797,-43.7836,74.34,46,16,5.23,BR,1660451090
196,Laguna,38.421,-121.4238,84.31,37,0,6.91,US,1660451090
197,Province of Mantua,45.1667,10.7833,70.84,85,19,2.53,IT,1660451091
198,Souillac,-20.5167,57.5167,70.18,64,20,19.57,MU,1660450842
199,Saint Anthony,45.0205,-93.218,65.66,80,100,9.22,US,1660451091
200,Keti Bandar,24.1447,67.4497,82.42,84,100,18.07,PK,1660451092
201,Saldanha,-33.0117,17.9442,50.05,70,28,18.77,ZA,1660451092
202,Gao,16.6362,1.637,89.73,33,84,8.08,ML,1660451093
203,Sabang,5.8933,95.3214,82.35,70,80,6.85,ID,1660451093
204,Saint-Augustin,51.226,-58.6502,59.25,92,100,8.32,CA,1660451093
205,East London,-33.0153,27.9116,56.34,62,0,16.11,ZA,1660450758
206,Provideniya,64.3833,-173.3,44.83,66,89,4.03,RU,1660450720
207,Būlaevo,54.9056,70.4439,61.66,54,3,14.5,KZ,1660451094
208,College,64.8569,-147.8028,73.38,66,75,3.44,US,1660450650
209,Beisfjord,68.3751,17.5988,52.05,92,96,4.83,NO,1660451095
210,Ihiala,5.8538,6.8603,71.04,98,100,3.76,NG,1660451095
211,Longyearbyen,78.2186,15.6401,42.64,87,75,10.36,SJ,1660450750
212,Katsuura,35.1333,140.3,80.46,86,100,24.16,JP,1660451096
213,Haines Junction,60.7522,-137.5108,62.55,55,12,6.91,CA,1660451096
214,Cockburn Town,21.4612,-71.1419,81.55,79,14,13.78,TC,1660450951
215,Broken Hill,-31.95,141.4333,60.33,40,20,16.17,AU,1660451097
216,Paducah,37.0834,-88.6001,69.21,92,0,0.0,US,1660451097
217,Necochea,-38.5473,-58.7368,55.87,80,11,16.4,AR,1660451098
218,Stokmarknes,68.5646,14.9108,49.98,76,100,1.14,NO,1660451098
219,Mezhdurechensk,53.6942,88.0603,60.37,90,71,9.28,RU,1660451099
220,Conde,-7.2597,-34.9075,69.26,94,40,8.05,BR,1660451099
221,Bilma,18.6853,12.9164,91.22,26,37,5.17,NE,1660451100
222,Athabasca,54.7169,-113.2854,68.41,80,38,4.81,CA,1660451100
223,Matara,5.9485,80.5353,83.75,70,100,13.33,LK,1660451101
224,Gobabis,-22.45,18.9667,45.3,50,2,8.41,NA,1660451101
225,Edson,53.5835,-116.4356,57.34,100,100,9.22,CA,1660451102
226,Nyurba,63.2842,118.3319,54.41,99,100,2.17,RU,1660451102
227,Qui Nhon,13.7667,109.2333,89.22,61,92,4.72,VN,1660450934
228,Freeport,40.6576,-73.5832,73.36,62,0,10.36,US,1660451103
229,Tres Palos,18.1833,-101.6167,71.6,95,100,1.5,MX,1660451103
230,Tabatinga,-4.2525,-69.9381,77.09,94,40,2.3,BR,1660451103
231,Santa Rosa,14.3122,121.1114,90.09,69,100,2.75,PH,1660450822
232,Barcelona,41.3888,2.159,83.55,78,20,10.36,ES,1660450861
233,Nishihara,26.1842,127.7558,89.65,70,75,16.11,JP,1660451104
234,Dakar,14.6937,-17.4441,81.48,78,100,19.64,SN,1660451105
235,Gandai,21.6667,81.1,78.17,84,100,11.45,IN,1660451105
236,Tottori-shi,35.5,134.2333,80.67,89,75,14.97,JP,1660451106
237,Santa Maria,-29.6842,-53.8069,57.97,93,0,4.81,BR,1660451030
238,Makakilo City,21.3469,-158.0858,82.72,61,20,16.11,US,1660451106
239,Vila do Maio,15.1333,-23.2167,79.59,83,99,11.45,CV,1660451107
240,Lufilufi,-13.8745,-171.5986,80.38,75,97,6.49,WS,1660451107
241,Bredasdorp,-34.5322,20.0403,49.17,86,74,15.75,ZA,1660450756
242,Simões,-7.5989,-40.8178,68.54,57,28,14.9,BR,1660451108
243,Malya,-2.9833,33.5167,66.52,59,84,5.06,TZ,1660451108
244,Airai,-8.9266,125.4092,76.32,38,35,5.19,TL,1660450827
245,Kabinda,-6.1333,24.4833,66.43,56,91,2.8,CD,1660451109
246,Port Macquarie,-31.4333,152.9167,68.9,32,40,8.57,AU,1660450893
247,Rio Grande,-32.035,-52.0986,57.63,91,0,5.66,BR,1660451110
248,Yangjiang,21.85,111.9667,86.94,71,9,3.89,CN,1660451110
249,Mingora,34.7758,72.3625,82.85,69,95,3.98,PK,1660450981
250,Rantoul,40.3084,-88.1559,71.44,87,100,6.91,US,1660451111
251,Aykhal,66.0,111.5,51.8,72,86,13.98,RU,1660450727
252,Chui,-33.6971,-53.4616,53.53,92,6,5.84,UY,1660451112
253,Jackson,42.4165,-122.8345,78.67,25,0,4.61,US,1660450843
254,Ulfborg,56.2673,8.3217,59.9,62,73,7.25,DK,1660451112
255,Korla,41.7597,86.1469,86.94,25,36,10.47,CN,1660451113
256,Kudahuvadhoo,2.6708,72.8944,81.61,77,84,6.55,MV,1660451113
257,Nemuro,43.3236,145.575,66.47,96,100,5.64,JP,1660451114
258,Beringovskiy,63.05,179.3167,45.73,72,17,6.04,RU,1660451114
259,Saint-Joseph,-21.3667,55.6167,67.21,73,44,13.27,RE,1660451114
260,São Filipe,14.8961,-24.4956,75.25,88,100,9.86,CV,1660451115
261,Ixtapa,20.7,-105.2,81.63,78,100,3.44,MX,1660451115
262,Ţahţā,26.7693,31.5021,79.56,42,5,10.33,EG,1660451116
263,Vao,-22.6667,167.4833,71.73,74,97,23.33,NC,1660450722
264,Vaitape,-16.5167,-151.75,77.88,76,13,10.89,PF,1660451116
265,Abapó,-18.8333,-63.4667,62.46,70,12,2.53,BO,1660451117
266,Reconquista,-29.15,-59.65,63.72,77,0,9.66,AR,1660451117
267,Esso,55.9333,158.7,68.09,67,100,6.06,RU,1660451118
268,Udachny,66.4167,112.4,55.45,66,91,12.17,RU,1660451118
269,Zyryanka,65.75,150.85,57.47,43,100,17.49,RU,1660451118
270,Shimoda,34.6667,138.95,85.1,89,100,17.27,JP,1660451119
271,São João da Barra,-21.6403,-41.0511,68.02,68,1,10.85,BR,1660451119
272,Kheda,22.75,72.6833,86.29,70,23,11.95,IN,1660451120
273,Bloomfield,40.8068,-74.1854,73.04,61,0,8.05,US,1660451120
274,Elko,41.0002,-115.5012,75.22,43,43,8.99,US,1660451121
275,Kolyvan',55.3053,82.7391,65.82,74,79,19.75,RU,1660451121
276,Isangel,-19.55,169.2667,75.78,71,70,17.96,VU,1660451122
277,Boa Vista,2.8197,-60.6733,78.78,83,20,2.3,BR,1660451122
278,Grindavik,63.8424,-22.4338,48.67,93,75,2.3,IS,1660451123
279,San Antonio,29.4241,-98.4936,85.59,71,0,9.22,US,1660450998
280,Pangkalanbuun,-2.6833,111.6167,89.51,50,100,3.15,ID,1660451123
281,Suriāpet,17.15,79.6167,78.35,81,100,12.35,IN,1660451124
282,Sabha,27.0377,14.4283,79.5,47,0,13.82,LY,1660450829
283,Port Blair,11.6667,92.75,77.04,94,75,4.61,IN,1660451125
284,Astolfo Dutra,-21.3153,-42.8622,57.67,89,5,1.99,BR,1660451125
285,Abnūb,27.2696,31.1511,73.62,48,3,8.97,EG,1660451125
286,Pueblo Nuevo,23.3833,-105.3833,58.14,97,100,1.72,MX,1660451126
287,San Miguel de Cozumel,20.5083,-86.9458,81.0,84,82,7.72,MX,1660451117
288,Adrar,20.5022,-10.0711,88.27,43,0,16.33,MR,1660451127
289,Lompoc,34.6391,-120.4579,62.74,89,75,8.05,US,1660451127
290,Ostrovnoy,68.0531,39.5131,51.73,72,99,15.99,RU,1660450870
291,Coyhaique,-45.5752,-72.0662,35.55,87,100,9.22,CL,1660451128
292,Saint-André-les-Vergers,48.2853,4.0521,62.64,59,0,4.61,FR,1660451128
293,Umluj,25.0213,37.2685,83.95,66,12,5.95,SA,1660450840
294,Cam Ranh,11.9214,109.1591,91.36,58,40,6.91,VN,1660451129
295,Madang,-5.2246,145.7966,84.36,63,68,6.15,PG,1660451129
296,Huadian,42.9633,126.7478,73.22,77,100,3.56,CN,1660451129
297,Peleduy,59.6289,112.7406,58.41,74,91,5.26,RU,1660451130
298,Torbay,47.6666,-52.7314,59.58,97,100,5.99,CA,1660450525
299,Yar-Sale,66.8333,70.8333,49.21,73,100,18.79,RU,1660451131
300,Meulaboh,4.1363,96.1285,83.39,71,100,2.53,ID,1660451131
301,Nuevitas,21.5453,-77.2644,77.5,86,32,3.8,CU,1660451132
302,Ranchuelo,22.3772,-80.1489,76.28,88,35,2.89,CU,1660451132
303,Kaohsiung City,22.6163,120.3133,90.03,64,40,6.91,TW,1660450971
304,Saint George,37.1041,-113.5841,87.64,46,0,6.91,US,1660450531
305,Lorengau,-2.0226,147.2712,84.42,69,100,5.7,PG,1660451133
306,Sault Ste. Marie,46.5168,-84.3333,57.76,86,0,3.44,CA,1660450903
307,Whitehorse,60.7161,-135.0538,66.02,47,75,16.11,CA,1660451133
308,Arraial do Cabo,-22.9661,-42.0278,68.49,72,48,22.62,BR,1660450725
309,Harindānga,22.0383,88.3214,80.78,88,97,20.15,IN,1660451134
310,Ust-Kuyga,70.0167,135.6,58.46,57,97,5.93,RU,1660451134
311,Okato,-39.2,173.8833,55.18,61,71,4.0,NZ,1660451135
312,Faanui,-16.4833,-151.75,77.88,76,13,11.01,PF,1660451135
313,Araouane,18.9048,-3.5265,90.21,39,5,14.27,ML,1660451136
314,Hervey Bay,-25.2986,152.8535,66.25,52,0,7.07,AU,1660451136
315,Ahipara,-35.1667,173.1667,57.13,65,100,4.12,NZ,1660451137
316,Waipawa,-41.4122,175.5153,50.79,70,0,9.06,NZ,1660451137
317,Jinotega,13.0917,-86.0018,65.17,97,100,3.18,NI,1660451137
318,Novikovo,51.1537,37.8879,68.56,78,100,8.16,RU,1660451138
319,Srandakan,-7.9386,110.2506,83.88,72,72,8.75,ID,1660451138
320,Hofn,64.2539,-15.2082,48.04,89,100,6.58,IS,1660451139
321,Guangyuan,32.442,105.823,91.69,59,100,5.26,CN,1660451139
322,Aripuanã,-9.1667,-60.6333,75.15,51,0,0.74,BR,1660451139
323,Altar,30.7,-111.8167,81.88,61,100,7.0,MX,1660451078
324,Bathsheba,13.2167,-59.5167,77.61,94,75,3.44,BB,1660450729
325,Rawson,-43.3002,-65.1023,51.66,39,94,30.67,AR,1660450856
326,Mahon,39.8885,4.2658,81.16,94,0,5.75,ES,1660451141
327,Helena,46.5927,-112.0361,77.99,43,0,1.99,US,1660451141
328,Boshnyakovo,49.6333,142.1667,66.49,71,43,2.68,RU,1660451141
329,Fengrun,39.8333,118.1167,75.49,95,100,5.39,CN,1660451142
330,Uauá,-9.8414,-39.4817,66.6,85,33,10.78,BR,1660451142
331,Kapoeta,4.7717,33.5903,72.5,81,97,2.71,SS,1660451143
332,Tuatapere,-46.1333,167.6833,52.72,58,12,3.49,NZ,1660450754
333,Youghal,51.95,-7.8506,67.55,59,20,5.41,IE,1660451143
334,Leningradskiy,69.3833,178.4167,36.23,77,54,6.2,RU,1660450735
335,Ponta do Sol,32.6667,-17.1,70.72,76,14,1.92,PT,1660450836
336,Dunda,-8.1167,34.25,55.89,86,5,2.46,TZ,1660451144
337,Eyl,7.9803,49.8164,78.57,61,48,24.11,SO,1660451145
338,Ballyhaunis,53.7667,-8.7667,59.72,88,100,4.21,IE,1660451145
339,Goundam,16.4145,-3.6708,87.12,49,47,11.52,ML,1660451146
340,Kuningan,-6.9758,108.4831,84.76,55,79,4.63,ID,1660451146
341,Barra do Garças,-15.89,-52.2567,71.26,36,1,1.81,BR,1660451147
342,Maningrida,-12.0667,134.2667,90.09,32,40,9.44,AU,1660451147
343,Poienile de sub Munte,47.8167,24.4333,57.42,93,25,4.07,RO,1660451148
344,Gemeente Hoorn,52.6431,5.0578,69.96,80,0,10.49,NL,1660450995
345,Mergen,49.1833,125.2167,76.62,55,91,2.37,CN,1660451148
346,Kokorevka,52.5872,34.2778,67.35,69,96,6.8,RU,1660451149
347,La Romana,18.4273,-68.9728,75.85,91,48,7.99,DO,1660451149
348,Smithers,54.7804,-127.1743,59.32,94,100,0.0,CA,1660451150
349,Haverfordwest,51.8017,-4.9691,63.55,58,83,6.24,GB,1660451151
350,Tornio,65.8481,24.1466,57.22,78,52,6.71,FI,1660451151
351,Kalianget,-7.05,113.9333,83.97,70,81,11.03,ID,1660451152
352,Caravelas,-17.7125,-39.2481,69.82,66,98,7.16,BR,1660451152
353,Hithadhoo,-0.6,73.0833,82.6,70,72,3.91,MV,1660450759
354,Soe,-9.8607,124.284,81.5,41,3,10.65,ID,1660451153
355,Tegul'det,57.3064,88.1667,64.89,77,88,11.45,RU,1660451153
356,Pisco,-13.7,-76.2167,57.02,88,40,3.44,PE,1660450736
357,Coquimbo,-29.9533,-71.3436,51.53,100,0,3.44,CL,1660450832
358,Eirunepé,-6.6603,-69.8736,77.04,68,72,1.07,BR,1660451154
359,Bujumbura,-3.3822,29.3644,72.16,61,96,1.52,BI,1660451155
360,Okha,53.5739,142.9478,62.24,75,66,2.08,RU,1660451155
361,Sur,22.5667,59.5289,86.0,64,96,9.86,OM,1660451155
362,Tadine,-21.55,167.8833,74.16,68,100,17.96,NC,1660451156
363,Polyarny,69.1989,33.4478,53.33,69,100,11.07,RU,1660451156
364,Shevchenkove,49.6959,37.1735,74.26,56,100,20.89,UA,1660451157
365,Kalmunai,7.4167,81.8167,87.4,59,99,4.7,LK,1660451157
366,Kiruna,67.8557,20.2251,43.72,87,100,3.44,SE,1660451158
367,Itarema,-2.9248,-39.9167,76.35,83,78,14.43,BR,1660450832
368,Talcahuano,-36.7167,-73.1167,49.68,100,100,8.05,CL,1660451159
369,Gisborne,-38.6533,178.0042,57.34,57,0,6.96,NZ,1660450923
370,Shingū,33.7333,135.9833,91.26,60,99,11.27,JP,1660451159
371,Lata,40.1629,-8.3327,55.51,98,80,2.17,PT,1660450744
372,Kidal,18.4411,1.4078,87.76,32,87,10.65,ML,1660450724
373,Puerto Quijarro,-17.7833,-57.7667,73.29,50,27,2.35,BO,1660451160
374,Laas,46.6166,10.7002,58.08,73,2,2.8,IT,1660451160
375,Nyaunglebin,17.95,96.7333,84.43,75,100,6.24,MM,1660451161
376,Nouakchott,18.0858,-15.9785,80.53,78,71,6.11,MR,1660451161
377,Española,35.9911,-106.0806,77.59,42,79,4.21,US,1660451162
378,Margate,51.3813,1.3862,72.3,80,89,7.52,GB,1660451162
379,Husavik,66.0449,-17.3389,47.3,82,100,2.82,IS,1660451163
380,Niltepec,16.5667,-94.6167,76.35,89,96,1.57,MX,1660451163
381,Lavrentiya,65.5833,-171.0,40.5,72,100,14.2,RU,1660451164
382,Dodola,6.9833,39.1833,54.25,93,96,2.59,ET,1660451164
383,Buenos Aires,-34.6132,-58.3772,61.95,85,0,3.44,AR,1660450942
384,Mandalgovi,45.7625,106.2708,66.0,52,3,15.7,MN,1660451165
385,Severo-Yeniseyskiy,60.3725,93.0408,58.41,57,100,5.1,RU,1660451165
386,Maceió,-9.6658,-35.7353,71.04,88,20,2.3,BR,1660451054
387,Pacific Grove,36.6177,-121.9166,64.08,86,100,5.75,US,1660451166
388,San Quintín,30.4833,-115.95,71.92,82,41,3.31,MX,1660451166
389,Kawalu,-7.3817,108.2082,85.24,62,76,4.5,ID,1660451167
390,Jacareacanga,-6.2222,-57.7528,77.72,60,68,3.4,BR,1660451167
391,Ust-Tsilma,65.441,52.1498,50.85,66,78,8.28,RU,1660451168
392,Kīhei,20.785,-156.4656,86.02,60,20,23.02,US,1660451168
393,Miravci,41.3078,22.435,64.02,91,64,5.1,MK,1660451169
394,Donji Vakuf,44.1436,17.4,57.54,99,98,3.04,BA,1660451169
395,Yicheng,31.3705,119.8703,97.66,49,85,4.14,CN,1660451169
396,Khovd,48.0056,91.6419,70.66,29,11,0.96,MN,1660451170
397,‘Āhuimanu,21.4447,-157.8378,83.91,70,100,16.11,US,1660451170
398,Kyra,49.5776,111.9753,68.67,59,85,1.52,RU,1660451171
399,Camacha,33.0833,-16.3333,67.42,88,40,6.91,PT,1660451171
400,Mwinilunga,-11.7358,24.4293,55.36,47,12,1.79,ZM,1660451172
401,Portland,45.5234,-122.6762,71.58,66,20,10.36,US,1660450948
402,Saint-François,46.4154,3.9054,71.04,56,0,18.41,FR,1660451172
403,Moussoro,13.6408,16.4901,77.63,82,100,2.93,TD,1660451173
404,Iquique,-20.2208,-70.1431,59.04,79,80,1.81,CL,1660450943
405,Inuvik,68.3499,-133.7218,57.96,82,75,12.66,CA,1660451174
406,Verkhov'ye,52.8119,37.2425,66.29,77,100,4.45,RU,1660451174
407,Ende,-8.8432,121.6623,86.63,59,3,5.79,ID,1660451174
408,Hailun,47.45,126.9333,74.34,64,97,1.34,CN,1660451175
409,Harper,4.375,-7.7169,75.6,80,81,11.72,LR,1660450838
410,Aktobe,50.2797,57.2072,77.09,41,0,11.18,KZ,1660451051
411,Voh,-20.9667,164.7,79.77,54,77,9.28,NC,1660451176
412,Anamur,36.0751,32.8369,80.13,67,0,5.73,TR,1660451176
413,Bukoba,-1.3317,31.8122,68.77,76,93,4.61,TZ,1660451177
414,Novy Urengoy,66.0833,76.6333,49.96,94,100,19.77,RU,1660451056
415,Smolenka,52.1352,113.4974,71.67,46,7,4.47,RU,1660451178
416,Porbandar,21.6422,69.6093,80.33,85,100,21.68,IN,1660451081
417,Sinnamary,5.3833,-52.95,77.94,81,34,10.96,GF,1660451179
418,Miraflores,19.2167,-98.8083,63.25,93,100,3.8,MX,1660451179
419,Tamandaré,-8.7597,-35.1047,74.08,71,28,11.92,BR,1660451179
420,Ginda,30.6945,78.4932,73.09,85,39,3.91,IN,1660451180
421,Río Cuarto,-33.1307,-64.3499,59.47,54,0,4.61,AR,1660451180
422,Marrakesh,31.6315,-8.0083,75.27,64,40,6.91,MA,1660451181
423,Antalaha,-14.9003,50.2788,68.47,87,80,7.18,MG,1660451181
424,Altus,34.6381,-99.334,87.31,43,0,9.22,US,1660451182
425,Kailua,21.4022,-157.7394,84.18,72,100,6.91,US,1660451182
426,Flin Flon,54.7682,-101.865,61.57,70,29,7.74,CA,1660451008
427,Bambanglipuro,-7.95,110.2833,83.91,71,74,8.68,ID,1660450834
428,Saryg-Sep,51.5,95.6,71.74,44,70,5.21,RU,1660451183
429,Roald,62.5833,6.1333,58.75,88,0,6.91,NO,1660451183
430,Grand Gaube,-20.0064,57.6608,70.38,66,99,10.0,MU,1660451184
431,Nome,64.5011,-165.4064,46.47,76,100,13.8,US,1660451184
432,Sooke,48.3746,-123.7276,66.09,88,95,21.85,CA,1660451185
433,Goderich,43.7501,-81.7165,64.9,94,95,3.44,CA,1660451185
434,Kavaratti,10.5669,72.642,81.52,78,100,10.92,IN,1660451186
435,Dărăşti-Ilfov,44.3089,26.0183,73.02,70,80,3.29,RO,1660451186
436,Terrace,54.5163,-128.6035,62.51,77,75,21.85,CA,1660451186
437,Benghazi,32.1167,20.0667,79.86,66,0,8.37,LY,1660451187
438,Puksoozero,62.5903,40.6066,54.86,58,26,2.57,RU,1660451187
439,Kushima,31.4583,131.2333,90.88,62,75,10.54,JP,1660451188
440,Ukhta,63.5671,53.6835,53.85,61,63,8.55,RU,1660451188
441,Pierre,44.3683,-100.351,73.85,72,0,9.22,US,1660451189
442,Deep River,46.1001,-77.4995,56.95,62,77,0.85,CA,1660451150
443,Eurajoki,61.2,21.7333,57.22,89,5,5.35,FI,1660451189
444,Āsosa,10.0667,34.5333,59.61,89,100,1.1,ET,1660451190
445,Rodeo,38.033,-122.2669,73.09,71,0,11.5,US,1660451190
446,Tezu,27.9167,96.1667,89.6,63,76,2.98,IN,1660451190
447,Ormara,25.2088,64.6357,82.71,79,96,4.88,PK,1660451191
448,Mailsi,29.8003,72.1758,88.65,60,60,8.81,PK,1660451191
449,Albertville,34.2676,-86.2089,72.07,85,0,0.0,US,1660451192
450,Urusha,54.05,122.9,73.33,51,79,4.32,RU,1660451192
451,Ozernovskiy,51.5,156.5167,57.25,94,99,4.81,RU,1660451193
452,Heihe,50.2441,127.4902,75.78,56,5,0.22,CN,1660451193
453,Gunjur,13.2019,-16.7339,77.07,94,75,0.0,GM,1660451194
454,Imbituba,-28.24,-48.6703,65.86,99,100,8.79,BR,1660451194
455,Tlučná,49.7243,13.2353,63.82,94,75,1.99,CZ,1660451194
456,Chulym,55.0997,80.9572,65.12,54,48,21.7,RU,1660451195
457,Hyères,43.1167,6.1167,78.69,54,0,3.44,FR,1660451195
458,Zaoyang,32.1272,112.7542,99.79,39,99,17.54,CN,1660451196
459,Clyde River,70.4692,-68.5914,46.63,81,75,4.61,CA,1660451196
460,Aksarka,66.5606,67.7975,50.11,66,100,16.37,RU,1660451197
461,Kosonsoy,41.2561,71.5508,75.76,18,0,4.34,UZ,1660451197
462,Bontang,0.1333,117.5,86.47,62,100,5.28,ID,1660451197
463,Vestmannaeyjar,63.4427,-20.2734,48.24,88,97,5.82,IS,1660451198
464,Bethanien,-26.502,17.1583,38.73,63,19,3.78,NA,1660451198
465,Carutapera,-1.195,-46.02,75.92,89,75,6.38,BR,1660451199
466,Auki,-8.7676,160.7034,84.22,66,32,3.65,SB,1660451199
467,Aleksandrovsk-Sakhalinskiy,50.8975,142.1561,68.47,69,42,5.95,RU,1660451200
468,Gouyave,12.1646,-61.7296,79.57,89,75,4.61,GD,1660451200
469,Pankrushikha,53.8319,80.3406,69.87,42,57,18.28,RU,1660451201
470,Melhus,63.2855,10.2781,53.58,95,100,1.12,NO,1660451201
471,Olafsvik,64.8945,-23.7142,47.88,76,63,4.99,IS,1660450721
472,Somerset East,-32.7217,25.588,42.85,66,9,11.21,ZA,1660451202
473,Mikkeli,61.6886,27.2723,64.15,88,0,2.3,FI,1660451202
474,Asău,46.4333,26.4,65.32,90,21,4.25,RO,1660451202
475,Kuching,1.55,110.3333,84.42,74,20,4.61,MY,1660451203
476,Sola,-13.8833,167.55,79.34,80,78,19.84,VU,1660451203
477,Samarai,-10.6167,150.6667,81.12,76,62,2.24,PG,1660451204
478,Muros,42.7762,-9.0603,63.84,88,18,5.41,ES,1660451204
479,Tamiahua,21.2667,-97.45,81.19,83,97,9.04,MX,1660451204
480,Chiang Khong,20.2613,100.4046,82.72,72,97,2.42,TH,1660451205
481,Shelburne,44.0787,-80.2041,60.76,70,53,2.75,CA,1660451205
482,Sakaiminato,35.55,133.2333,82.38,83,75,20.71,JP,1660451206
483,Turan,16.0678,108.2208,93.18,55,20,3.44,VN,1660451206
484,Mount Isa,-20.7333,139.5,71.37,18,4,13.8,AU,1660450843
485,Devils Lake,48.1128,-98.8651,67.95,81,0,5.75,US,1660450753
486,Kununurra,-15.7667,128.7333,91.38,18,29,8.05,AU,1660450726
487,Kirakira,-10.4544,161.9205,82.87,74,32,6.51,SB,1660451207
488,Karratha,-20.7377,116.8463,83.25,36,17,9.15,AU,1660451208
489,Faya,18.3851,42.4509,66.72,71,96,4.25,SA,1660450740
490,Moissac,44.1024,1.0945,69.67,97,50,6.46,FR,1660451208
491,Petropavlovsk-Kamchatskiy,53.0452,158.6483,59.59,88,75,8.95,RU,1660451209
492,Saint-Pierre,-21.3393,55.4781,69.3,62,20,2.3,RE,1660451209
493,Te Anau,-45.4167,167.7167,50.49,63,13,3.44,NZ,1660450728
494,Vuktyl,63.8567,57.3094,49.96,74,100,8.46,RU,1660451210
495,Tanout,14.9709,8.8879,80.73,57,73,4.97,NE,1660451210
496,Yueyang,29.3333,113.0919,96.8,43,100,15.48,CN,1660451211
497,Zaraza,9.3503,-65.3245,73.22,97,81,1.95,VE,1660451211
498,Aitape,-3.1374,142.3475,85.03,65,54,9.08,PG,1660451211
499,Alyangula,-13.8483,136.4192,79.23,49,53,15.41,AU,1660451212
500,Cleburne,32.3476,-97.3867,89.29,48,0,10.36,US,1660451045
501,Kulhudhuffushi,6.6221,73.07,81.25,78,100,7.72,MV,1660451212
502,Lerwick,60.1545,-1.1494,57.2,93,17,6.06,GB,1660451213
503,Naryan-Mar,67.6713,53.087,49.53,63,100,12.19,RU,1660450824
504,Lima,-12.0432,-77.0282,58.89,86,100,5.75,PE,1660450944
505,Pakxan,18.3778,103.6601,83.97,76,100,3.58,LA,1660451214
506,Maromme,49.4793,1.0238,66.27,50,0,8.05,FR,1660451214
507,Chinhoyi,-17.3667,30.2,56.17,60,0,4.16,ZW,1660451215
508,Nemyriv,48.9708,28.8378,62.44,76,76,7.49,UA,1660451215
509,Kholm,59.2667,32.85,63.25,82,12,2.26,RU,1660451215
510,Launceston,-41.45,147.1667,58.33,85,75,21.85,AU,1660451216
511,Koumac,-20.5667,164.2833,79.56,57,70,7.99,NC,1660451216
512,Mogocha,53.7333,119.7667,75.6,39,13,6.67,RU,1660451217
513,Alofi,-19.0595,-169.9187,73.29,64,100,12.66,NU,1660451217
514,Burnie,-41.0667,145.9167,59.38,66,36,8.46,AU,1660451217
515,Vanino,49.0869,140.2543,71.1,60,33,7.02,RU,1660451218
516,Beloha,-25.1667,45.05,62.4,65,0,7.11,MG,1660451218
517,Kimberley,-28.7323,24.7623,31.69,86,0,5.75,ZA,1660451219
518,Manokwari,-0.8667,134.0833,82.09,71,98,5.37,ID,1660451219
519,Nevel',56.0209,29.9284,59.81,77,84,4.12,RU,1660451220
520,Liberty,31.8335,-81.5004,76.26,47,0,0.0,US,1660451220
521,Seydi,39.4816,62.9137,88.72,20,0,19.91,TM,1660451221
522,Sharlyk,52.9167,54.75,71.15,55,27,11.41,RU,1660451221
523,Khanino,54.211,36.6229,62.71,70,100,3.27,RU,1660451222
524,Praia,14.9215,-23.5087,79.34,73,100,5.75,CV,1660451222
525,Zheleznogorsk,52.331,35.3711,67.71,71,89,9.33,RU,1660451222
526,Marystown,47.1666,-55.1483,62.19,95,100,8.63,CA,1660451223
527,Pharr,26.1948,-98.1836,83.08,79,0,4.61,US,1660451098
528,Senj,44.9894,14.9058,68.72,74,37,5.95,HR,1660451223
529,Zhigansk,66.7697,123.3711,60.85,63,55,4.65,RU,1660451224
530,Sobreira,41.5237,-7.8023,54.95,96,40,2.3,PT,1660451224
531,Khasan,42.4308,130.6434,77.16,62,100,3.71,RU,1660451225
532,Vanavara,60.34,102.2797,55.02,58,99,0.67,RU,1660451225
533,Huangmei,30.1924,116.025,97.16,43,87,8.59,CN,1660451226
534,Minna,9.6139,6.5569,73.11,94,75,17.27,NG,1660451226
535,Hambantota,6.1241,81.1185,86.34,74,20,5.75,LK,1660451227
536,Agropoli,40.3469,14.9966,65.08,82,0,4.41,IT,1660451227
537,High Rock,26.6208,-78.2833,83.32,66,36,6.31,BS,1660451227
538,Nantucket,41.2835,-70.0995,68.11,69,100,4.61,US,1660451228
539,Takoradze,4.8845,-1.7554,74.57,86,98,11.54,GH,1660451228
540,Lázaro Cárdenas,17.9583,-102.2,77.34,90,100,4.65,MX,1660451229
541,Olinda,-8.0089,-34.8553,76.73,65,40,13.8,BR,1660451229
542,Half Moon Bay,37.4636,-122.4286,67.53,81,100,16.11,US,1660451230
543,Camp Verde,34.5636,-111.8543,82.83,64,95,4.88,US,1660451230
544,Hualmay,-11.0964,-77.6139,61.12,84,34,8.41,PE,1660451231
545,Ketchikan,55.3422,-131.6461,61.27,77,100,10.36,US,1660450555
546,Wilkie,52.4168,-108.7014,66.88,80,10,14.34,CA,1660451231
547,Kitoy,52.6,103.9,70.68,43,88,2.68,RU,1660451028
548,Bonavista,48.6499,-53.1147,59.31,95,64,7.61,CA,1660451232
